{
"type": "FeatureCollection",
"name": "Красота",
"features": [
{ "type": "Feature", "properties": { "Name": "NS DN Nail Studio by Natalija Dunaeva", "description": null }, "geometry": { "type": "Point", "coordinates": [ 19.8425096, 45.2596328, 0.0 ] } },
{ "type": "Feature", "properties": { "Name": "NS Timeless beauty", "description": null }, "geometry": { "type": "Point", "coordinates": [ 19.8160315, 45.2585649, 0.0 ] } },
{ "type": "Feature", "properties": { "Name": "NS Art Nail Lab studio za manikir", "description": null }, "geometry": { "type": "Point", "coordinates": [ 19.8315242, 45.2490151, 0.0 ] } },
{ "type": "Feature", "properties": { "Name": "NS Lenore Beauty", "description": null }, "geometry": { "type": "Point", "coordinates": [ 19.8421297, 45.2595518, 0.0 ] } },
{ "type": "Feature", "properties": { "Name": "NS LUNALIA", "description": null }, "geometry": { "type": "Point", "coordinates": [ 19.8372949, 45.2584574, 0.0 ] } },
{ "type": "Feature", "properties": { "Name": "NS La Zorro kozmetički salon", "description": null }, "geometry": { "type": "Point", "coordinates": [ 19.8536075, 45.2614436, 0.0 ] } },
{ "type": "Feature", "properties": { "Name": "NS Salon lepote IRA", "description": null }, "geometry": { "type": "Point", "coordinates": [ 19.8427077, 45.2600918, 0.0 ] } },
{ "type": "Feature", "properties": { "Name": "NS Happy Time", "description": "салон красоты" }, "geometry": { "type": "Point", "coordinates": [ 19.8406389, 45.2511351, 0.0 ] } },
{ "type": "Feature", "properties": { "Name": "NS Russian Yoga Studio Novi Sad", "description": "студия йоги, массажа и ушу" }, "geometry": { "type": "Point", "coordinates": [ 19.8444433, 45.2514333, 0.0 ] } },
{ "type": "Feature", "properties": { "Name": "NS Pastel Frizerski salon", "description": null }, "geometry": { "type": "Point", "coordinates": [ 19.8358647, 45.2603115, 0.0 ] } },
{ "type": "Feature", "properties": { "Name": "NS Barber Men & Women", "description": null }, "geometry": { "type": "Point", "coordinates": [ 19.8249032, 45.2446072, 0.0 ] } },
{ "type": "Feature", "properties": { "Name": "BG MESTO Barbershop", "description": null }, "geometry": { "type": "Point", "coordinates": [ 20.4774877, 44.7964219, 0.0 ] } },
{ "type": "Feature", "properties": { "Name": "BG Oldboy Barbershop", "description": null }, "geometry": { "type": "Point", "coordinates": [ 20.4565098, 44.8220772, 0.0 ] } },
{ "type": "Feature", "properties": { "Name": "BG TT Cuts", "description": null }, "geometry": { "type": "Point", "coordinates": [ 20.4594283, 44.8171264, 0.0 ] } },
{ "type": "Feature", "properties": { "Name": "BG Barbershop BarbarossA", "description": null }, "geometry": { "type": "Point", "coordinates": [ 20.4804212, 44.7934783, 0.0 ] } },
{ "type": "Feature", "properties": { "Name": "BG Raskolnikov Beauty Studio", "description": "Салон красоты" }, "geometry": { "type": "Point", "coordinates": [ 20.4578928, 44.8237355, 0.0 ] } },
{ "type": "Feature", "properties": { "Name": "BG THE GOD OF BEAUTY ", "description": "(салон красоты)" }, "geometry": { "type": "Point", "coordinates": [ 20.490643, 44.7960474, 0.0 ] } },
{ "type": "Feature", "properties": { "Name": "BG Matrjoshka.Beauty", "description": "Салон красоты" }, "geometry": { "type": "Point", "coordinates": [ 20.4662455, 44.8086851, 0.0 ] } },
{ "type": "Feature", "properties": { "Name": "BG Salon Story 6", "description": "Маникюрный салон" }, "geometry": { "type": "Point", "coordinates": [ 20.4784941, 44.8033232, 0.0 ] } },
{ "type": "Feature", "properties": { "Name": "BG EASY Laserska epilacija", "description": "салон лазерной эпиляции" }, "geometry": { "type": "Point", "coordinates": [ 20.4711808, 44.7965958, 0.0 ] } },
{ "type": "Feature", "properties": { "Name": "BG Dan/Barber", "description": null }, "geometry": { "type": "Point", "coordinates": [ 20.4699864, 44.8186623, 0.0 ] } },
{ "type": "Feature", "properties": { "Name": "BG Loft5 Beograd", "description": "парикмахерская" }, "geometry": { "type": "Point", "coordinates": [ 20.4531891, 44.8284227, 0.0 ] } },
{ "type": "Feature", "properties": { "Name": "BG KITCUT barbershop", "description": null }, "geometry": { "type": "Point", "coordinates": [ 20.4599287, 44.8184145, 0.0 ] } },
{ "type": "Feature", "properties": { "Name": "BG Dayshift Belgrade", "description": "Barber shop" }, "geometry": { "type": "Point", "coordinates": [ 20.4597162, 44.811627, 0.0 ] } },
{ "type": "Feature", "properties": { "Name": "BG Zlato Beauty", "description": null }, "geometry": { "type": "Point", "coordinates": [ 20.4942784, 44.7939409, 0.0 ] } },
{ "type": "Feature", "properties": { "Name": "BG Levina Tattoo", "description": null }, "geometry": { "type": "Point", "coordinates": [ 20.4703509, 44.8175418, 0.0 ] } },
{ "type": "Feature", "properties": { "Name": "BG Best tattoos in Belgrade. Pavel Zubkov", "description": "Студия татуировки" }, "geometry": { "type": "Point", "coordinates": [ 20.4828397, 44.7982419, 0.0 ] } },
{ "type": "Feature", "properties": { "Name": "BG For You massage", "description": "Массажный салон" }, "geometry": { "type": "Point", "coordinates": [ 20.4745501, 44.812931, 0.0 ] } },
{ "type": "Feature", "properties": { "Name": "BG PurPur - yoga studio", "description": "Йога студия" }, "geometry": { "type": "Point", "coordinates": [ 20.4877736, 44.7997071, 0.0 ] } },
{ "type": "Feature", "properties": { "Name": "BG Big Greg Cut Spot", "description": "Barber shop" }, "geometry": { "type": "Point", "coordinates": [ 20.4599473, 44.8079243, 0.0 ] } },
{ "type": "Feature", "properties": { "Name": "BG K3 hair Spot", "description": null }, "geometry": { "type": "Point", "coordinates": [ 20.4598697, 44.8225978, 0.0 ] } },
{ "type": "Feature", "properties": { "Name": "BG Act Sport Studio", "description": "Фитнес студия" }, "geometry": { "type": "Point", "coordinates": [ 20.4735552, 44.7928916, 0.0 ] } },
{ "type": "Feature", "properties": { "Name": "BG Mimi Club", "description": null }, "geometry": { "type": "Point", "coordinates": [ 20.4186696, 44.8226044, 0.0 ] } },
{ "type": "Feature", "properties": { "Name": "BG Basileus Massage", "description": null }, "geometry": { "type": "Point", "coordinates": [ 20.4721431, 44.8130449, 0.0 ] } },
{ "type": "Feature", "properties": { "Name": "BG Flow Hair Salon", "description": null }, "geometry": { "type": "Point", "coordinates": [ 20.471995, 44.7967341, 0.0 ] } },
{ "type": "Feature", "properties": { "Name": "BG Frid Lab", "description": null }, "geometry": { "type": "Point", "coordinates": [ 20.479235, 44.8076088, 0.0 ] } }
]
}
